[
    {
        "School": "國立師大附中",
        "Lat": 25.033674,
        "Long": 121.540396,
        "His":[0,0,1,1,1]
    },
    {
        "School": "國立政大附中",
        "Lat": 24.98713,
        "Long": 121.58588,
        "His":[0,0,0,0,1]
    },
    {
        "School": "市立西松高中",
        "Lat": 25.055571,
        "Long": 121.567099,
        "His":[0,0,0,0,1]
    },
    {
        "School": "市立中崙高中",
        "Lat": 25.048705,
        "Long": 121.561069,
        "His":[0,0,0,0,1]
    },
    {
        "School": "市立松山高中",
        "Lat": 25.04366,
        "Long": 121.56577,
        "His":[0,0,0,1,1]
    },
    {
        "School": "市立永春高中",
        "Lat": 25.03271,
        "Long": 121.578661,
        "His":[0,0,0,1,1]
    },
    {
        "School": "市立和平高中",
        "Lat": 25.019639,
        "Long": 121.549145,
        "His":[0,0,1,1,1]
    },
    {
        "School": "市立中山女中",
        "Lat": 25.048532,
        "Long": 121.537161,
        "His":[1,1,1,1,1]
    },
    {
        "School": "市立大同高中",
        "Lat": 25.05488,
        "Long": 121.535107,
        "His":[0,1,1,1,1]
    },
    {
        "School": "市立大直高中",
        "Lat": 25.07949,
        "Long": 121.54321,
        "His":[1,1,1,0,0]
    },
    {
        "School": "市立建國中學",
        "Lat": 25.03121,
        "Long": 121.512176,
        "His":[1,1,1,1,1]
    },
    {
        "School": "市立成功中學",
        "Lat": 25.04233,
        "Long": 121.52368,
        "His":[0,1,1,1,1]
    },
    {
        "School": "市立北一女中",
        "Lat": 25.038606,
        "Long": 121.513015,
        "His":[1,1,1,1,1]
    },
    {
        "School": "市立明倫高中",
        "Lat": 25.07558,
        "Long": 121.51912,
        "His":[0,0,0,1,1]
    },
    {
        "School": "市立成淵高中",
        "Lat": 25.061274,
        "Long": 121.518527,
        "His":[1,1,1,1,1]
    },
    {
        "School": "市立華江高中",
        "Lat": 25.028525,
        "Long": 121.496168,
        "His":[0,0,1,1,1]
    },
    {
        "School": "市立大理高中",
        "Lat": 25.030892,
        "Long": 121.491299,
        "His":[0,0,0,1,1]
    },
    {
        "School": "市立景美女中",
        "Lat": 24.98068,
        "Long": 121.55622,
        "His":[0,0,1,1,1]
    },
    {
        "School": "市立萬芳高中",
        "Lat": 25.000558,
        "Long": 121.558781,
        "His":[0,0,0,0,1]
    },
    {
        "School": "市立南港高中",
        "Lat": 25.052482,
        "Long": 121.595048,
        "His":[0,0,0,1,1]
    },
    {
        "School": "市立育成高中",
        "Lat": 25.058684,
        "Long": 121.609168,
        "His":[0,0,0,0,1]
    },
    {
        "School": "市立內湖高中",
        "Lat": 25.07839,
        "Long": 121.58666,
        "His":[0,0,0,1,1]
    },
    {
        "School": "市立麗山高中",
        "Lat": 25.084112,
        "Long": 121.577928,
        "His":[0,0,0,0,1]
    },
    {
        "School": "市立南湖高中",
        "Lat": 25.0665,
        "Long": 121.6108,
        "His":[0,0,0,0,1]
    },
    {
        "School": "市立陽明高中",
        "Lat": 25.09177,
        "Long": 121.51711,
        "His":[0,0,0,1,1]
    },
    {
        "School": "市立百齡高中",
        "Lat": 25.086957,
        "Long": 121.523099,
        "His":[0,0,0,1,1]
    },
    {
        "School": "市立復興高中",
        "Lat": 25.143705,
        "Long": 121.501805,
        "His":[0,0,1,1,1]
    },
    {
        "School": "市立中正高中",
        "Lat": 25.104496,
        "Long": 121.516566,
        "His":[0,0,1,1,1]
    },
    {
        "School": "私立協和祐德中學",
        "Lat": 25.042622,
        "Long": 121.583481,
        "His":[0,0,0,1,1]
    },
    {
        "School": "私立延平中學",
        "Lat": 25.03688,
        "Long": 121.53842,
        "His":[0,0,1,1,1]
    },
    {
        "School": "私立金甌女中",
        "Lat": 25.03477,
        "Long": 121.52418,
        "His":[0,0,1,1,1]
    },
    {
        "School": "私立復興實驗高中",
        "Lat": 25.039328,
        "Long": 121.54844,
        "His":[0,0,0,0,1]
    },
    {
        "School": "私立大同高中",
        "Lat": 25.066839,
        "Long": 121.52221,
        "His":[0,0,1,1,1]
    },
    {
        "School": "私立強恕中學",
        "Lat": 25.024888,
        "Long": 121.52,
        "His":[0,0,0,0,1]
    },
    {
        "School": "私立靜修中學",
        "Lat": 25.057911,
        "Long": 121.51537,
        "His":[0,1,1,1,1]
    },
    {
        "School": "私立立人高中",
        "Lat": 25.03879,
        "Long": 121.49626,
        "His":[0,0,1,1,1]
    },
    {
        "School": "私立東山高中",
        "Lat": 24.97418,
        "Long": 121.56095,
        "His":[0,0,0,1,1]
    },
    {
        "School": "私立滬江高中",
        "Lat": 24.989781,
        "Long": 121.539165,
        "His":[0,0,1,1,1]
    },
    {
        "School": "私立大誠高中",
        "Lat": 24.99071,
        "Long": 121.577,
        "His":[0,0,0,1,1]
    },
    {
        "School": "私立再興中學",
        "Lat": 24.990447,
        "Long": 121.559112,
        "His":[0,0,1,1,1]
    },
    {
        "School": "私立景文高中",
        "Lat": 24.985368,
        "Long": 121.567393,
        "His":[0,0,0,1,1]
    },
    {
        "School": "私立文德女中",
        "Lat": 25.077576,
        "Long": 121.589754,
        "His":[0,0,0,1,1]
    },
    {
        "School": "私立方濟中學",
        "Lat": 25.07732,
        "Long": 121.590183,
        "His":[0,0,1,1,1]
    },
    {
        "School": "私立達人女中",
        "Lat": 25.081257,
        "Long": 121.58763,
        "His":[0,0,0,1,1]
    },
    {
        "School": "私立泰北高中",
        "Lat": 25.097467,
        "Long": 121.534036,
        "His":[0,1,1,1,1]
    },
    {
        "School": "私立衛理女中",
        "Lat": 25.101724,
        "Long": 121.552265,
        "His":[0,0,0,1,1]
    },
    {
        "School": "私立華興中學",
        "Lat": 25.104603,
        "Long": 121.538208,
        "His":[0,0,1,1,1]
    },
    {
        "School": "私立薇閣高中",
        "Lat": 25.13947,
        "Long": 121.50392,
        "His":[0,0,0,0,1]
    },
    {
        "School": "私立幼華高中",
        "Lat": 25.13311,
        "Long": 121.49712,
        "His":[0,0,0,1,1]
    }
]
